[{"Museum": "MVZ", "Number": "121439", "State": "California", "Lat": 34.067273, "Long": -118.682744, "County": "Los Angeles County"}, {"Museum": "MVZ", "Number": "46918", "State": "California", "Lat": 34.294857, "Long": -117.999544, "County": "Los Angeles County"}, {"Museum": "MVZ", "Number": "84215", "State": "California", "Lat": 36.4025096, "Long": -120.9369094, "County": "San Benito County"}, {"Museum": "MVZ", "Number": "24408", "State": "California", "Lat": 34.289705, "Long": -118.288912, "County": "Los Angeles County"}, {"Museum": "MVZ", "Number": "35388", "State": "California", "Lat": 34.7707083, "Long": -118.9418837, "County": "Ventura County"}, {"Museum": "MVZ", "Number": "91034", "State": "California", "Lat": 36.599344, "Long": -121.894659, "County": "Monterey County"}, {"Museum": "MVZ", "Number": "91035", "State": "California", "Lat": 34.5521204, "Long": -119.7698184, "County": "Santa Barbara County"}, {"Museum": "MVZ", "Number": "113385", "State": "Colorado", "Lat": null, "Long": null, "County": ""}, {"Museum": "MVZ", "Number": "99747", "State": "Idaho", "Lat": 43.2258, "Long": -114.405, "County": "Camas County"}, {"Museum": "MVZ", "Number": "78128", "State": "Montana", "Lat": 46.3889, "Long": -112.7356, "County": "Powell County"}, {"Museum": "MVZ", "Number": "14708", "State": "Montana", "Lat": 44.8184, "Long": -111.2799, "County": "Gallatin County"}, {"Museum": "MVZ", "Number": "44126", "State": "Wyoming", "Lat": null, "Long": null, "County": ""}, {"Museum": "MVZ", "Number": "44128", "State": "Wyoming", "Lat": null, "Long": null, "County": ""}, {"Museum": "MVZ", "Number": "51639", "State": "Wyoming", "Lat": 44.5988847, "Long": -110.4998981, "County": "Park County"}, {"Museum": "MVZ", "Number": "54955", "State": "Wyoming", "Lat": 44.5988847, "Long": -110.4998981, "County": "Park County"}, {"Museum": "MVZ", "Number": "44127", "State": "Wyoming", "Lat": null, "Long": null, "County": ""}, {"Museum": "MVZ", "Number": "54956", "State": "Wyoming", "Lat": 44.5988847, "Long": -110.4998981, "County": "Park County"}, {"Museum": "MVZ", "Number": "4773", "State": "Alaska", "Lat": 57.4802777778, "Long": -134.0230555556, "County": "Hoonah-Angoon Census Area"}, {"Museum": "MVZ", "Number": "222", "State": "Alaska", "Lat": 58.13, "Long": -134.7622222222, "County": "Juneau City and Borough"}, {"Museum": "MVZ", "Number": "4775", "State": "Alaska", "Lat": 57.4802777778, "Long": -134.0230555556, "County": "Hoonah-Angoon Census Area"}, {"Museum": "MVZ", "Number": "221", "State": "Alaska", "Lat": 58.13, "Long": -134.7622222222, "County": "Juneau City and Borough"}, {"Museum": "MVZ", "Number": "4774", "State": "Alaska", "Lat": 57.4802777778, "Long": -134.0230555556, "County": "Hoonah-Angoon Census Area"}, {"Museum": "MVZ", "Number": "218", "State": "Alaska", "Lat": 57.7130555556, "Long": -134.2880555556, "County": "Hoonah-Angoon Census Area"}, {"Museum": "MVZ", "Number": "16530", "State": "Alaska", "Lat": 57.6652777778, "Long": -134.0605555556, "County": "Hoonah-Angoon Census Area"}, {"Museum": "MVZ", "Number": "4693", "State": "Alaska", "Lat": 57.5333333333, "Long": -134.25, "County": "Hoonah-Angoon Census Area"}, {"Museum": "MVZ", "Number": "214", "State": "Alaska", "Lat": 57.8655555556, "Long": -134.2847222222, "County": "Hoonah-Angoon Census Area"}, {"Museum": "MVZ", "Number": "4712", "State": "Alaska", "Lat": 55.0888888889, "Long": -162.0305555556, "County": "Aleutians East Borough"}, {"Museum": "MVZ", "Number": "215", "State": "Alaska", "Lat": 57.8655555556, "Long": -134.2847222222, "County": "Hoonah-Angoon Census Area"}, {"Museum": "MVZ", "Number": "217", "State": "Alaska", "Lat": 57.6405555556, "Long": -133.9941666667, "County": "Hoonah-Angoon Census Area"}, {"Museum": "MVZ", "Number": "4725", "State": "Alaska", "Lat": 57.8655555556, "Long": -134.2847222222, "County": "Hoonah-Angoon Census Area"}, {"Museum": "MVZ", "Number": "4729", "State": "Alaska", "Lat": 57.6728784059, "Long": -134.28326141, "County": "Hoonah-Angoon Census Area"}, {"Museum": "MVZ", "Number": "8858", "State": "Alaska", "Lat": 57.8655555556, "Long": -134.2847222222, "County": "Hoonah-Angoon Census Area"}, {"Museum": "MVZ", "Number": "216", "State": "Alaska", "Lat": 57.8655555556, "Long": -134.2847222222, "County": "Hoonah-Angoon Census Area"}, {"Museum": "MVZ", "Number": "219", "State": "Alaska", "Lat": 57.7861111111, "Long": -134.0741666667, "County": "Hoonah-Angoon Census Area"}, {"Museum": "MVZ", "Number": "4694", "State": "Alaska", "Lat": 57.5333333333, "Long": -134.25, "County": "Hoonah-Angoon Census Area"}, {"Museum": "MVZ", "Number": "9520", "State": "Alaska", "Lat": 60.2974722222, "Long": -151.2290833333, "County": "Kenai Peninsula Borough"}, {"Museum": "MVZ", "Number": "4679", "State": "Alaska", "Lat": 57.6728784059, "Long": -134.28326141, "County": "Hoonah-Angoon Census Area"}, {"Museum": "MVZ", "Number": "437", "State": "Alaska", "Lat": 58.4563888889, "Long": -135.8991666667, "County": "Hoonah-Angoon Census Area"}, {"Museum": "MVZ", "Number": "4724", "State": "Alaska", "Lat": 60.1477, "Long": -161.0511, "County": "Bethel Census Area"}, {"Museum": "MVZ", "Number": "124125", "State": "British Columbia", "Lat": 52.4667, "Long": -125.0799, "County": ""}, {"Museum": "MVZ", "Number": "53388", "State": "British Columbia", "Lat": 52.3667, "Long": -126.1, "County": ""}, {"Museum": "MVZ", "Number": "53389", "State": "British Columbia", "Lat": 52.3667, "Long": -126.1, "County": ""}, {"Museum": "MVZ", "Number": "53390", "State": "British Columbia", "Lat": 52.4066, "Long": -125.9412, "County": ""}, {"Museum": "MVZ", "Number": "43324", "State": "British Columbia", "Lat": 52.9167, "Long": -121.1667, "County": ""}, {"Museum": "MVZ", "Number": "43325", "State": "British Columbia", "Lat": null, "Long": null, "County": ""}, {"Museum": "MVZ", "Number": "77354", "State": "British Columbia", "Lat": 52.3833, "Long": -126.75, "County": ""}, {"Museum": "MVZ", "Number": "100050", "State": "British Columbia", "Lat": 50.1333, "Long": -115.5, "County": ""}, {"Museum": "MVZ", "Number": "100047", "State": "British Columbia", "Lat": 49.15028, "Long": -116.60345, "County": ""}, {"Museum": "MVZ", "Number": "100051", "State": "British Columbia", "Lat": 50.17815, "Long": -116.125, "County": ""}, {"Museum": "MVZ", "Number": "100046", "State": "British Columbia", "Lat": 49.15028, "Long": -116.60345, "County": ""}, {"Museum": "MVZ", "Number": "46634", "State": "British Columbia", "Lat": 49.6167, "Long": -115.6333, "County": ""}, {"Museum": "MVZ", "Number": "46625", "State": "British Columbia", "Lat": 49.3833, "Long": -115.7333, "County": ""}, {"Museum": "MVZ", "Number": "46631", "State": "British Columbia", "Lat": 49.9333, "Long": -115.7667, "County": ""}, {"Museum": "MVZ", "Number": "46636", "State": "British Columbia", "Lat": 50.4667, "Long": -115.9833, "County": ""}, {"Museum": "MVZ", "Number": "100052", "State": "British Columbia", "Lat": 50.19837, "Long": -115.71389, "County": ""}, {"Museum": "MVZ", "Number": "46626", "State": "British Columbia", "Lat": 49.3833, "Long": -115.7333, "County": ""}, {"Museum": "MVZ", "Number": "46632", "State": "British Columbia", "Lat": 49.0833, "Long": -117.8, "County": ""}, {"Museum": "MVZ", "Number": "184150", "State": "California", "Lat": 37.144887, "Long": -119.306557, "County": "Fresno County"}, {"Museum": "MVZ", "Number": "16268", "State": "California", "Lat": 35.7412, "Long": -118.31, "County": "Kern County"}, {"Museum": "MVZ", "Number": "103898", "State": "California", "Lat": 38.2173355, "Long": -120.370656, "County": "Calaveras County"}, {"Museum": "MVZ", "Number": "128521", "State": "California", "Lat": 37.171726, "Long": -118.564765, "County": "Inyo County"}, {"Museum": "MVZ", "Number": "184149", "State": "California", "Lat": 36.966766, "Long": -119.210612, "County": "Fresno County"}, {"Museum": "MVZ", "Number": "99741", "State": "California", "Lat": 40.0796805, "Long": -121.5434611, "County": "Butte County"}, {"Museum": "MVZ", "Number": "23661", "State": "California", "Lat": 37.652157, "Long": -119.702803, "County": "Mariposa County"}, {"Museum": "MVZ", "Number": "162985", "State": "California", "Lat": 37.831812, "Long": -119.459452, "County": "Mariposa County"}, {"Museum": "MVZ", "Number": "16269", "State": "California", "Lat": 35.7412, "Long": -118.31, "County": "Kern County"}, {"Museum": "MVZ", "Number": "114216", "State": "California", "Lat": 40.4948656, "Long": -121.161152, "County": "Lassen County"}, {"Museum": "MVZ", "Number": "163000", "State": "California", "Lat": 37.544416, "Long": -119.638195, "County": "Mariposa County"}, {"Museum": "MVZ", "Number": "162979", "State": "California", "Lat": 37.664031, "Long": -119.62126, "County": "Mariposa County"}, {"Museum": "MVZ", "Number": "162982", "State": "California", "Lat": 37.732492, "Long": -119.502634, "County": "Mariposa County"}, {"Museum": "MVZ", "Number": "162984", "State": "California", "Lat": 37.769542, "Long": -119.509052, "County": "Mariposa County"}, {"Museum": "MVZ", "Number": "162980", "State": "California", "Lat": 37.756856, "Long": -119.799191, "County": "Mariposa County"}, {"Museum": "MVZ", "Number": "162981", "State": "California", "Lat": 37.732492, "Long": -119.502634, "County": "Mariposa County"}, {"Museum": "MVZ", "Number": "29805", "State": "California", "Lat": 37.736686, "Long": -119.598212, "County": "Mariposa County"}, {"Museum": "MVZ", "Number": "162996", "State": "California", "Lat": 37.736686, "Long": -119.598212, "County": "Mariposa County"}, {"Museum": "MVZ", "Number": "162997", "State": "California", "Lat": 37.736686, "Long": -119.598212, "County": "Mariposa County"}, {"Museum": "MVZ", "Number": "21400", "State": "California", "Lat": 37.736686, "Long": -119.598212, "County": "Mariposa County"}, {"Museum": "MVZ", "Number": "78127", "State": "Montana", "Lat": 45.8426, "Long": -113.9568, "County": "Ravalli County"}, {"Museum": "MVZ", "Number": "134300", "State": "Idaho", "Lat": 45.8269, "Long": -115.4358, "County": "Idaho County"}, {"Museum": "MVZ", "Number": "51641", "State": "Wyoming", "Lat": 44.5988847, "Long": -110.4998981, "County": "Park County"}, {"Museum": "MVZ", "Number": "51642", "State": "Wyoming", "Lat": 44.5988847, "Long": -110.4998981, "County": "Park County"}, {"Museum": "MVZ", "Number": "8323", "State": "Alaska", "Lat": 56.2075, "Long": -131.7291666667, "County": "Wrangell City and Borough"}, {"Museum": "MVZ", "Number": "51640", "State": "Wyoming", "Lat": 44.5988847, "Long": -110.4998981, "County": "Park County"}, {"Museum": "MVZ", "Number": "84273", "State": "Montana", "Lat": 46.3142, "Long": -114.1136, "County": "Ravalli County"}, {"Museum": "MVZ", "Number": "112195", "State": "Montana", "Lat": 46.2477, "Long": -114.1598, "County": "Ravalli County"}, {"Museum": "MVZ", "Number": "104869", "State": "", "Lat": "", "Long": "", "County": ""}, {"Museum": "MVZ", "Number": "134971", "State": "Washington", "Lat": 47.7494, "Long": -121.1194, "County": "King County"}, {"Museum": "MVZ", "Number": "32976", "State": "Washington", "Lat": 46.2706, "Long": -123.37229081, "County": "Wahkiakum County"}, {"Museum": "MVZ", "Number": "50253", "State": "Arizona", "Lat": 31.8936, "Long": -109.3722, "County": "Cochise County"}, {"Museum": "MVZ", "Number": "50254", "State": "Arizona", "Lat": 32.6, "Long": -110.35, "County": "Graham County"}, {"Museum": "MVZ", "Number": "61329", "State": "Colorado", "Lat": 37.40720545, "Long": -107.6597247, "County": "La Plata County"}, {"Museum": "MVZ", "Number": "94806", "State": "Colorado", "Lat": null, "Long": null, "County": ""}, {"Museum": "MVZ", "Number": "71805", "State": "Montana", "Lat": 46.7299, "Long": -109.3457, "County": "Golden Valley County"}, {"Museum": "MVZ", "Number": "4378", "State": "Alaska", "Lat": 59.7316666667, "Long": -139.8386111111, "County": "Yakutat City and Borough"}, {"Museum": "MVZ", "Number": "4377", "State": "Alaska", "Lat": 59.9619444444, "Long": -139.57, "County": "Yakutat City and Borough"}, {"Museum": "MVZ", "Number": "4381", "State": "Alaska", "Lat": 59.9619444444, "Long": -139.57, "County": "Yakutat City and Borough"}, {"Museum": "MVZ", "Number": "4349", "State": "Alaska", "Lat": 58.3048611111, "Long": -134.0491388889, "County": "Juneau City and Borough"}, {"Museum": "MVZ", "Number": "4763", "State": "Alaska", "Lat": 60.7922222222, "Long": -161.7558333333, "County": "Bethel Census Area"}, {"Museum": "MVZ", "Number": "99482", "State": "Alaska", "Lat": 64.2782, "Long": -148.1838, "County": "Denali Borough"}, {"Museum": "MVZ", "Number": "14712", "State": "California", "Lat": 41.3048523, "Long": -122.7974017, "County": "Siskiyou County"}, {"Museum": "MVZ", "Number": "53391", "State": "British Columbia", "Lat": 52.4667, "Long": -125.3167, "County": ""}, {"Museum": "MVZ", "Number": "43318", "State": "British Columbia", "Lat": null, "Long": null, "County": ""}, {"Museum": "MVZ", "Number": "43320", "State": "British Columbia", "Lat": null, "Long": null, "County": ""}, {"Museum": "MVZ", "Number": "43319", "State": "British Columbia", "Lat": null, "Long": null, "County": ""}, {"Museum": "MVZ", "Number": "44523", "State": "British Columbia", "Lat": 53.05, "Long": -122.1667, "County": ""}, {"Museum": "MVZ", "Number": "47770", "State": "British Columbia", "Lat": 52.0833, "Long": -123.2833, "County": ""}, {"Museum": "MVZ", "Number": "53394", "State": "British Columbia", "Lat": 52.4667, "Long": -125.3167, "County": ""}, {"Museum": "MVZ", "Number": "4677", "State": "British Columbia", "Lat": 57.9, "Long": -131.1667, "County": ""}, {"Museum": "MVZ", "Number": "47771", "State": "British Columbia", "Lat": 50.3, "Long": -118.8167, "County": ""}, {"Museum": "MVZ", "Number": "53397", "State": "British Columbia", "Lat": 51.95, "Long": -124.8333, "County": ""}, {"Museum": "MVZ", "Number": "53395", "State": "British Columbia", "Lat": 51.9, "Long": -124.6, "County": ""}, {"Museum": "MVZ", "Number": "8327", "State": "Alaska", "Lat": 56.5983333333, "Long": -132.8091666667, "County": "Petersburg Borough"}, {"Museum": "UCMP", "Number": "V27308", "State": "California", "Lat": "", "Long": "", "County": "Shasta County"}, {"Museum": "UCMP", "Number": "V31037", "State": "California", "Lat": "", "Long": "", "County": "Amador County"}, {"Museum": "UCMP", "Number": "V8851", "State": "California", "Lat": "", "Long": "", "County": "Shasta County"}, {"Museum": "UCMP", "Number": "V35709", "State": "California", "Lat": "", "Long": "", "County": "Shasta County"}, {"Museum": "UCMP", "Number": "V9502", "State": "California", "Lat": "", "Long": "", "County": "Shasta County"}, {"Museum": "UCMP", "Number": "V35701", "State": "California", "Lat": "", "Long": "", "County": "Shasta County"}, {"Museum": "UCMP", "Number": "V3882", "State": "California", "Lat": "", "Long": "", "County": "Shasta County"}, {"Museum": "UCMP", "Number": "V35710", "State": "California", "Lat": "", "Long": "", "County": "Shasta County"}, {"Museum": "UCMP", "Number": "V9511", "State": "California", "Lat": "", "Long": "", "County": "Shasta County"}, {"Museum": "UCMP", "Number": "V35702", "State": "California", "Lat": "", "Long": "", "County": "Shasta County"}, {"Museum": "UCMP", "Number": "V35716", "State": "California", "Lat": "", "Long": "", "County": "Shasta County"}, {"Museum": "UCMP", "Number": "V27331", "State": "California", "Lat": "", "Long": "", "County": "Shasta County"}, {"Museum": "UCMP", "Number": "V9003", "State": "California", "Lat": "", "Long": "", "County": "Shasta County"}, {"Museum": "UCMP", "Number": "V9533", "State": "California", "Lat": "", "Long": "", "County": "Shasta County"}, {"Museum": "UCMP", "Number": "V9651", "State": "California", "Lat": "", "Long": "", "County": "Shasta County"}, {"Museum": "UCMP", "Number": "V9009", "State": "California", "Lat": "", "Long": "", "County": "Shasta County"}, {"Museum": "UCMP", "Number": "V3002", "State": "California", "Lat": "", "Long": "", "County": "Shasta County"}, {"Museum": "UCMP", "Number": "V3725", "State": "California", "Lat": "", "Long": "", "County": "Shasta County"}, {"Museum": "UCMP", "Number": "V3012", "State": "", "Lat": "", "Long": "", "County": ""}, {"Museum": "UCMP", "Number": "V10272", "State": "California", "Lat": "", "Long": "", "County": "Shasta County"}, {"Museum": "UCMP", "Number": "V4292", "State": "California", "Lat": "", "Long": "", "County": "Shasta County"}, {"Museum": "UCMP", "Number": "V3726", "State": "California", "Lat": "", "Long": "", "County": "Shasta County"}, {"Museum": "UCMP", "Number": "V4459", "State": "California", "Lat": "", "Long": "", "County": "Shasta County"}, {"Museum": "UCMP", "Number": "V42824", "State": "Alaska", "Lat": "", "Long": "", "County": "Fourth Judicial Division"}, {"Museum": "UCMP element", "Number": "V8817", "State": "", "Lat": "", "Long": "", "County": ""}, {"Museum": "UCMP element", "Number": "V22260", "State": "", "Lat": "", "Long": "", "County": ""}, {"Museum": "UCMP element", "Number": "V85122", "State": "", "Lat": "", "Long": "", "County": ""}, {"Museum": "UCMP element", "Number": "V8818", "State": "", "Lat": "", "Long": "", "County": ""}, {"Museum": "UCMP element", "Number": "V138363", "State": "", "Lat": "", "Long": "", "County": ""}]